[
    {
        "City": "新北市",
        "District": "萬里區",
        "Lat": 25.175724,
        "Lng": 121.643929
    },
    {
        "City": "新北市",
        "District": "金山區",
        "Lat": 25.2171459,
        "Lng": 121.605263
    },
    {
        "City": "連江縣",
        "District": "南竿鄉",
        "Lat": 26.1543217,
        "Lng": 119.931129
    },
    {
        "City": "連江縣",
        "District": "北竿鄉",
        "Lat": 26.2256374,
        "Lng": 119.994247
    },
    {
        "City": "連江縣",
        "District": "莒光鄉",
        "Lat": 25.97298,
        "Lng": 119.938873
    },
    {
        "City": "連江縣",
        "District": "東引鄉",
        "Lat": 26.3661,
        "Lng": 120.4903
    },
    {
        "City": "新北市",
        "District": "板橋區",
        "Lat": 25.0118637,
        "Lng": 121.45797
    },
    {
        "City": "新北市",
        "District": "汐止區",
        "Lat": 25.0733128,
        "Lng": 121.6547
    },
    {
        "City": "新北市",
        "District": "深坑區",
        "Lat": 24.9976749,
        "Lng": 121.620064
    },
    {
        "City": "新北市",
        "District": "石碇區",
        "Lat": 24.9471416,
        "Lng": 121.647224
    },
    {
        "City": "新北市",
        "District": "瑞芳區",
        "Lat": 25.09813,
        "Lng": 121.823204
    },
    {
        "City": "新北市",
        "District": "平溪區",
        "Lat": 25.0260715,
        "Lng": 121.757881
    },
    {
        "City": "新北市",
        "District": "雙溪區",
        "Lat": 24.9969845,
        "Lng": 121.832985
    },
    {
        "City": "新北市",
        "District": "貢寮區",
        "Lat": 25.0248566,
        "Lng": 121.918243
    },
    {
        "City": "新北市",
        "District": "新店區",
        "Lat": 24.93039,
        "Lng": 121.531654
    },
    {
        "City": "新北市",
        "District": "坪林區",
        "Lat": 24.91097,
        "Lng": 121.72422
    },
    {
        "City": "新北市",
        "District": "烏來區",
        "Lat": 24.7882423,
        "Lng": 121.541481
    },
    {
        "City": "新北市",
        "District": "永和區",
        "Lat": 25.0081024,
        "Lng": 121.516747
    },
    {
        "City": "新北市",
        "District": "中和區",
        "Lat": 24.990881,
        "Lng": 121.493675
    },
    {
        "City": "新北市",
        "District": "土城區",
        "Lat": 24.96425,
        "Lng": 121.44574
    },
    {
        "City": "新北市",
        "District": "三峽區",
        "Lat": 24.8820972,
        "Lng": 121.416313
    },
    {
        "City": "新北市",
        "District": "樹林區",
        "Lat": 24.9797058,
        "Lng": 121.401031
    },
    {
        "City": "新北市",
        "District": "鶯歌區",
        "Lat": 24.956625,
        "Lng": 121.346626
    },
    {
        "City": "新北市",
        "District": "三重區",
        "Lat": 25.0628166,
        "Lng": 121.4871
    },
    {
        "City": "新北市",
        "District": "新莊區",
        "Lat": 25.03583,
        "Lng": 121.436752
    },
    {
        "City": "新北市",
        "District": "泰山區",
        "Lat": 25.0554981,
        "Lng": 121.416275
    },
    {
        "City": "新北市",
        "District": "林口區",
        "Lat": 25.1000862,
        "Lng": 121.352722
    },
    {
        "City": "新北市",
        "District": "蘆洲區",
        "Lat": 25.0892715,
        "Lng": 121.471245
    },
    {
        "City": "新北市",
        "District": "五股區",
        "Lat": 25.0961475,
        "Lng": 121.433212
    },
    {
        "City": "新北市",
        "District": "八里區",
        "Lat": 25.1381283,
        "Lng": 121.413834
    },
    {
        "City": "新北市",
        "District": "淡水區",
        "Lat": 25.1890755,
        "Lng": 121.463905
    },
    {
        "City": "新北市",
        "District": "三芝區",
        "Lat": 25.2316,
        "Lng": 121.515556
    },
    {
        "City": "新北市",
        "District": "石門區",
        "Lat": 25.26518,
        "Lng": 121.569275
    }
]